{
"type": "FeatureCollection",
"features": [
{ "type": "Feature", "properties": { "ADDRESS": " Москва г, Десеновское п, Футбольная ул, дом № 17", "ORIGINAL_LAT": 55.513973569218393, "ORIGINAL_LNG": 37.371613499999896, "LABEL": "Футбольная улица 17, Москва, Россия, 142793", "COUNTRY": "Россия", "ADMIN3": "Москва", "CITY": "Москва", "POSTALCODE": "142793", "LAT": 55.51412, "LNG": 37.37203, "ACCESS_LAT": 55.51405, "ACCESS_LNG": 37.37211, "RESULT_TYPE": "houseNumber", "HOUSE_NUMBER_TYPE": "PA", "QUERY_SCORE": 0.54, "CITY_SCORE": 1.0, "STREET_SCORE": 1.0, "HOUSE_NUMBER_SCORE": 1.0, "distances": 31.0 }, "geometry": { "type": "Point", "coordinates": [ 37.37203, 55.51412 ] } },
{ "type": "Feature", "properties": { "ADDRESS": " Московская обл, Видное г, Радужная ул, дом № 2", "ORIGINAL_LAT": 55.5425, "ORIGINAL_LNG": 37.709743, "LABEL": "Радужная улица 2, Ленинский район, Россия, 142701", "COUNTRY": "Россия", "ADMIN3": "Московская область", "CITY": "Ленинский район", "POSTALCODE": "142701", "LAT": 55.54302, "LNG": 37.70989, "ACCESS_LAT": 55.54298, "ACCESS_LNG": 37.71068, "RESULT_TYPE": "houseNumber", "HOUSE_NUMBER_TYPE": "PA", "QUERY_SCORE": 0.81, "CITY_SCORE": null, "STREET_SCORE": 1.0, "HOUSE_NUMBER_SCORE": 1.0, "distances": 59.0 }, "geometry": { "type": "Point", "coordinates": [ 37.70989, 55.54302 ] } },
{ "type": "Feature", "properties": { "ADDRESS": " Москва г, Солянка ул, дом № 1\/2, строение 2", "ORIGINAL_LAT": 55.753422, "ORIGINAL_LNG": 37.638614, "LABEL": "улица Солянка 1\/2 стр 2, Москва, Россия, 109028", "COUNTRY": "Россия", "ADMIN3": "Москва", "CITY": "Москва", "POSTALCODE": "109028", "LAT": 55.75353, "LNG": 37.63855, "ACCESS_LAT": 55.75341, "ACCESS_LNG": 37.63832, "RESULT_TYPE": "houseNumber", "HOUSE_NUMBER_TYPE": "PA", "QUERY_SCORE": 0.84, "CITY_SCORE": 1.0, "STREET_SCORE": 1.0, "HOUSE_NUMBER_SCORE": 1.0, "distances": 13.0 }, "geometry": { "type": "Point", "coordinates": [ 37.63855, 55.75353 ] } },
{ "type": "Feature", "properties": { "ADDRESS": " Московская обл, Дмитров г, им А.Маркова мкр, дом № 22А", "ORIGINAL_LAT": 56.347828, "ORIGINAL_LNG": 37.529645, "LABEL": "микрорайон им. А. Маркова 22А, Дмитровский район, Россия, 141800", "COUNTRY": "Россия", "ADMIN3": "Московская область", "CITY": "Дмитровский район", "POSTALCODE": "141800", "LAT": 56.34782, "LNG": 37.52972, "ACCESS_LAT": 56.34795, "ACCESS_LNG": 37.52968, "RESULT_TYPE": "houseNumber", "HOUSE_NUMBER_TYPE": "PA", "QUERY_SCORE": 0.77, "CITY_SCORE": null, "STREET_SCORE": 0.9, "HOUSE_NUMBER_SCORE": 1.0, "distances": 5.0 }, "geometry": { "type": "Point", "coordinates": [ 37.52972, 56.34782 ] } }
]
}
